  GPSTime           Latitude          Longitude      Ellip-Hgt    Local-VE    Local-VN    Local-VU        Heading          Pitch           Roll   
      (s)              (deg)              (deg)            (m)       (m/s)       (m/s)       (m/s)          (deg)          (deg)          (deg)   
293574.00      30.5280564241     114.3557124711         30.488       0.006      -1.020       0.004     181.309669       0.299866      -0.199984   
293575.00      30.5280469856     114.3557123260         30.490      -0.007      -1.058      -0.017     181.799399       0.464079       0.013917   
293576.00      30.5280373947     114.3557121543         30.491      -0.024      -1.047       0.018     181.855234       0.485799       0.212661   
293577.00      30.5280275904     114.3557122639         30.490       0.025      -1.114      -0.012     180.534334       0.409844      -0.031868   
293578.00      30.5280175910     114.3557123005         30.491       0.013      -1.112       0.027     180.891842       0.333613       0.201761   
293579.00      30.5280073331     114.3557122819         30.490      -0.015      -1.122      -0.011     181.802077       0.243454       0.309970   
293580.00      30.5279973318     114.3557120108         30.491      -0.028      -1.108       0.015     182.526821       0.189099       0.478350   
293581.00      30.5279875262     114.3557119643         30.490       0.041      -1.091       0.007     180.499428       0.160942       0.459109   
293582.00      30.5279791064     114.3557133779         30.487       0.442      -0.817       0.026     166.304938       0.162804       0.354462   
293583.00      30.5279740863     114.3557181697         30.486       0.790      -0.349       0.016     133.909155       0.362436       0.271883   
293584.00      30.5279717861     114.3557259658         30.484       0.980      -0.056       0.019     105.756097      -0.023189       0.250664   
293585.00      30.5279715808     114.3557362678         30.480       1.114       0.055       0.002      91.030337       0.370479       0.312977   
293586.00      30.5279720052     114.3557479855         30.481       1.134       0.068       0.008      88.601441       0.391608       0.379904   
293587.00      30.5279724600     114.3557600481         30.481       1.158       0.070       0.007      88.877857       0.464906       0.403701   
293588.00      30.5279728990     114.3557724829         30.480       1.190       0.040       0.012      89.387346       0.391444       0.244167   
293589.00      30.5279734375     114.3557845839         30.477       1.143       0.076       0.025      88.283414       0.337263       0.004876   
293590.00      30.5279737328     114.3557967500         30.478       1.167       0.029       0.015      90.196091       0.422936      -0.027919   
293591.00      30.5279738005     114.3558085603         30.480       1.122      -0.017       0.025      90.759525       0.328488       0.216909   
293592.00      30.5279738040     114.3558202160         30.478       1.112       0.007       0.009      91.237429       0.453729       0.123753   
293593.00      30.5279739266     114.3558320236         30.481       1.164      -0.008      -0.003      90.383423       0.403495       0.206477   
293594.00      30.5279739513     114.3558438404         30.481       1.114       0.018       0.016      90.239491       0.566061       0.518133   
293595.00      30.5279741068     114.3558552180         30.480       1.062      -0.010       0.007      90.796482       0.616912       0.292470   
293596.00      30.5279724197     114.3558661111         30.479       0.827      -0.526      -0.017     109.925154       0.133155       0.043511   
293597.00      30.5279668387     114.3558737712         30.478       0.340      -0.828      -0.008     140.163367       0.470742       0.144301   
293598.00      30.5279582773     114.3558772144         30.478      -0.003      -0.938       0.001     168.255956       0.367148       0.305125   
293599.00      30.5279482972     114.3558772168         30.477      -0.081      -1.116       0.009     182.989725       0.225902       0.097078   
293600.00      30.5279377347     114.3558763879         30.476      -0.088      -1.202      -0.001     184.605887       0.405527       0.379828   
293601.00      30.5279269076     114.3558756013         30.471      -0.039      -1.224       0.020     183.935919       0.051583       0.219934   
293602.00      30.5279161778     114.3558751924         30.468      -0.006      -1.146      -0.025     182.380260       0.236293       0.151060   
293603.00      30.5279053544     114.3558750667         30.462      -0.005      -1.217       0.032     181.270887       0.008815       0.126727   
293604.00      30.5278941860     114.3558750265         30.457       0.016      -1.292      -0.036     180.605754       0.082465       0.278294   
293605.00      30.5278829267     114.3558752685         30.449       0.003      -1.210       0.017     180.416670       0.088828       0.048257   
293606.00      30.5278723160     114.3558752360         30.445      -0.017      -1.131      -0.021     180.980443       0.150016       0.275726   
293607.00      30.5278621012     114.3558752340         30.442       0.012      -1.146      -0.002     180.945804       0.283568       0.409012   
293608.00      30.5278518322     114.3558752965         30.438       0.004      -1.147       0.029     181.356876       0.140486       0.320862   
293609.00      30.5278414597     114.3558741921         30.432      -0.464      -1.004       0.022     193.554981       0.064190       0.209804   
293610.00      30.5278332245     114.3558676208         30.426      -0.928      -0.533      -0.001     227.035118      -0.110413       0.204920   
293611.00      30.5278287766     114.3558569284         30.416      -1.106      -0.119      -0.023     253.961415       0.157292       0.151322   
293612.00      30.5278279568     114.3558444060         30.414      -1.126       0.029       0.009     270.058013       0.314151       0.188799   
293613.00      30.5278280005     114.3558325340         30.410      -1.130       0.044       0.036     272.560258       0.487580      -0.310757   
293614.00      30.5278286440     114.3558209812         30.411      -1.071       0.084       0.034     274.778761       0.460402       0.101110   
293615.00      30.5278298388     114.3558098818         30.413      -0.852       0.412       0.010     283.888545       0.466522       0.128759   
293616.00      30.5278346696     114.3558010643         30.412      -0.534       0.756       0.007     312.440165       0.425489      -0.201392   
293617.00      30.5278428735     114.3557960131         30.417      -0.161       0.977      -0.036     339.747023       0.509612       0.246309   
293618.00      30.5278523686     114.3557946115         30.421       0.009       1.045      -0.008     357.635337       0.596546       0.163406   
293619.00      30.5278620834     114.3557948392         30.425       0.028       1.030       0.007       2.916370       0.688402      -0.010699   
293620.00      30.5278718275     114.3557951862         30.433       0.034       1.079       0.018       3.010127       0.762924       0.084409   
293621.00      30.5278817228     114.3557955568         30.438       0.028       1.139       0.001       2.994815       0.536715       0.058245   
293622.00      30.5278916886     114.3557957769         30.443       0.034       1.139       0.022       1.986524       0.706748       0.185813   
293623.00      30.5279017502     114.3557958728         30.449      -0.013       1.063       0.011       1.162964       0.586430       0.269132   
293624.00      30.5279112863     114.3557958720         30.454      -0.029       1.057       0.001       0.767734       0.718276       0.276741   
293625.00      30.5279209968     114.3557954554         30.458      -0.055       1.087       0.028     359.133241       0.560351      -0.041721   
293626.00      30.5279308156     114.3557952001         30.462      -0.015       1.101      -0.037       0.569866       0.570085       0.001993   
293627.00      30.5279406570     114.3557951585         30.467      -0.022       1.084      -0.002       0.215950       0.616171       0.315424   
293628.00      30.5279503874     114.3557950747         30.471      -0.016       1.077      -0.003       0.660201       0.703862       0.277107   
293629.00      30.5279603179     114.3557949173         30.474       0.003       1.101      -0.021       0.843774       0.124647       0.267667   
293630.00      30.5279702133     114.3557948623         30.473       0.010       1.096      -0.018       1.247983       0.323565       0.090916   
293631.00      30.5279800132     114.3557947925         30.473      -0.012       1.056       0.006       0.965197       0.456094      -0.008540   
293632.00      30.5279898163     114.3557947075         30.475       0.005       1.067      -0.001       0.563457       0.395541       0.016320   
293633.00      30.5279995743     114.3557946529         30.475      -0.003       1.086      -0.015       0.995851       0.247178      -0.022903   
293634.00      30.5280091315     114.3557943847         30.477      -0.020       1.057       0.007     359.803176       0.463137       0.013042   
293635.00      30.5280187544     114.3557941629         30.478      -0.004       1.116       0.013       0.192968       0.226743       0.047096   
293636.00      30.5280290390     114.3557943052         30.478       0.013       1.176      -0.011       1.681876       0.283534       0.195163   
293637.00      30.5280397425     114.3557947630         30.477       0.047       1.194       0.001       3.089335       0.097999       0.412375   
293638.00      30.5280497130     114.3557951520         30.475      -0.005       1.155       0.026       1.897946       0.715177       0.535375   
293639.00      30.5280593641     114.3557947135         30.479      -0.241       1.008       0.020     354.307730       0.405273       0.716625   
293640.00      30.5280663884     114.3557912221         30.480      -0.667       0.614      -0.002     329.326106       0.434815       0.522432   
293641.00      30.5280697964     114.3557846891         30.482      -0.923       0.207      -0.029     296.550318       0.522662       0.260651   
293642.00      30.5280709261     114.3557754311         30.483      -1.053      -0.022       0.022     275.431793       0.589488       0.091692   
293643.00      30.5280708491     114.3557641007         30.486      -1.118      -0.061       0.004     270.137681       0.249294       0.125829   
293644.00      30.5280704208     114.3557522709         30.487      -1.155      -0.043       0.009     268.697520       0.629447       0.053706   
293645.00      30.5280702076     114.3557399406         30.491      -1.179       0.001      -0.002     270.638109       0.334890       0.088153   
293646.00      30.5280700547     114.3557284264         30.493      -1.106      -0.104       0.000     268.652926       0.365897       0.096391   
293647.00      30.5280679833     114.3557184658         30.491      -0.857      -0.585       0.009     249.324638       0.271441       0.087672   
293648.00      30.5280627033     114.3557125898         30.491      -0.223      -0.911       0.009     214.916765       0.517276       0.061372   
293649.00      30.5280550595     114.3557111576         30.489       0.024      -1.009      -0.015     187.101198       0.415444      -0.198468   
293650.00      30.5280454223     114.3557113302         30.490       0.066      -1.152      -0.017     179.623970       0.368466       0.028396   
293651.00      30.5280349968     114.3557119122         30.490       0.060      -1.181      -0.023     178.484896       0.376220       0.150049   
293652.00      30.5280243429     114.3557125292         30.489       0.000      -1.186      -0.003     179.365010       0.343584       0.120862   
293653.00      30.5280135321     114.3557124511         30.489       0.003      -1.194       0.016     181.105641       0.324453       0.328406   
293654.00      30.5280029572     114.3557123569         30.488      -0.032      -1.131       0.022     182.198416       0.418621       0.341165   
293655.00      30.5279927082     114.3557122067         30.488       0.050      -1.128       0.051     180.739569       0.366387       0.465227   
293656.00      30.5279830071     114.3557129538         30.486       0.234      -1.048      -0.000     173.631028       0.222401       0.452941   
293657.00      30.5279756979     114.3557170178         30.484       0.760      -0.650       0.004     146.543277       0.397991       0.289805   
293658.00      30.5279721353     114.3557244741         30.482       0.981      -0.142      -0.010     112.432188       0.070165       0.310201   
293659.00      30.5279714969     114.3557341621         30.478       1.123       0.078       0.015      92.001900       0.240591       0.315901   
293660.00      30.5279719789     114.3557461391         30.479       1.185       0.065       0.009      88.533291       0.386841       0.354247   
293661.00      30.5279724850     114.3557585888         30.479       1.188       0.026      -0.004      89.149980       0.534269       0.378044   
293662.00      30.5279728022     114.3557713171         30.479       1.220       0.037       0.020      90.150945       0.295628       0.248968   
293663.00      30.5279731461     114.3557839511         30.477       1.213       0.045       0.007      89.478537       0.282206       0.111534   
293664.00      30.5279732677     114.3557965654         30.478       1.224      -0.022      -0.003      91.495938       0.405161       0.126010   
293665.00      30.5279733283     114.3558092459         30.479       1.214       0.026      -0.009      90.133994       0.304935       0.262966   
293666.00      30.5279734852     114.3558216868         30.479       1.190      -0.026       0.008      91.314554       0.449449       0.093532   
293667.00      30.5279733440     114.3558340095         30.481       1.163       0.002       0.002      91.201295       0.350246       0.382056   
293668.00      30.5279734324     114.3558456280         30.483       1.120       0.011       0.038      90.479991       0.372743       0.456887   
293669.00      30.5279732244     114.3558572867         30.480       1.037      -0.224       0.004      96.606588       0.553807       0.145542   
293670.00      30.5279696637     114.3558678876         30.479       0.665      -0.696       0.005     122.119179       0.083939      -0.029696   
293671.00      30.5279621694     114.3558735544         30.479       0.090      -0.920      -0.014     157.688349       0.365701       0.248883   
293672.00      30.5279524116     114.3558749375         30.477      -0.046      -1.103       0.004     178.132712       0.183948       0.247828   
293673.00      30.5279422594     114.3558746927         30.474      -0.058      -1.158       0.011     182.606733       0.360740       0.192878   
293674.00      30.5279316195     114.3558742211         30.471      -0.001      -1.168       0.002     182.768848       0.177019       0.324195   
293675.00      30.5279212231     114.3558740746         30.467       0.012      -1.172      -0.011     181.528838       0.209380       0.165349   
293676.00      30.5279105925     114.3558739786         30.465       0.002      -1.170       0.015     180.978980       0.029649       0.470267   
293677.00      30.5278998890     114.3558739474         30.458       0.012      -1.193      -0.004     181.029386       0.065201       0.312211   
293678.00      30.5278891780     114.3558741856         30.452       0.011      -1.169      -0.029     180.276292      -0.032016       0.242145   
293679.00      30.5278784565     114.3558743167         30.446      -0.003      -1.169       0.003     180.638056       0.069045       0.290037   
293680.00      30.5278680663     114.3558744053         30.441       0.020      -1.119      -0.014     180.945050       0.272126       0.295965   
293681.00      30.5278581571     114.3558744577         30.439       0.010      -1.098       0.005     180.695796       0.220549       0.423069   
293682.00      30.5278483940     114.3558744175         30.435      -0.093      -1.038      -0.037     182.613566       0.364861       0.471427   
293683.00      30.5278386173     114.3558718018         30.428      -0.546      -0.885       0.002     202.279740       0.254509       0.467577   
293684.00      30.5278311052     114.3558637336         30.419      -1.010      -0.376      -0.027     235.454141      -0.263024       0.121130   
293685.00      30.5278286180     114.3558520379         30.413      -1.131       0.043      -0.012     265.164926      -0.031815       0.083540   
293686.00      30.5278287745     114.3558397120         30.409      -1.173       0.109      -0.069     273.576980       0.491645      -0.097927   
293687.00      30.5278291014     114.3558276083         30.409      -1.158      -0.046      -0.011     271.627399       0.251100      -0.271028   
293688.00      30.5278291978     114.3558158678         30.411      -1.076       0.100       0.021     272.874599       0.592712       0.174669   
293689.00      30.5278316868     114.3558048445         30.411      -0.740       0.576       0.002     295.026459       0.277555      -0.049010   
293690.00      30.5278383141     114.3557974036         30.414      -0.317       0.886       0.020     325.904503       0.709757       0.073424   
293691.00      30.5278475412     114.3557946112         30.417       0.032       1.010       0.005     354.114232       0.547929       0.061684   
293692.00      30.5278574645     114.3557946396         30.422       0.058       1.125      -0.012       2.082712       0.656176       0.198437   
293693.00      30.5278677925     114.3557951093         30.428       0.040       1.179       0.002       3.339442       0.762904       0.074540   
293694.00      30.5278786562     114.3557954208         30.436       0.032       1.196       0.010       2.293760       0.519904       0.172080   
293695.00      30.5278895912     114.3557957041         30.439      -0.025       1.233      -0.002       1.625775       0.665058       0.150828   
293696.00      30.5279007737     114.3557956623         30.446       0.016       1.242       0.012       1.515540       0.582672       0.153413   
293697.00      30.5279118196     114.3557955432         30.450      -0.056       1.237      -0.014     359.882955       0.642696       0.075121   
293698.00      30.5279228995     114.3557952102         30.456       0.005       1.215       0.025       0.166268       0.530073      -0.043898   
293699.00      30.5279338346     114.3557951916         30.460      -0.014       1.212       0.028       0.614703       0.594711       0.033606   
293700.00      30.5279447214     114.3557951879         30.466      -0.001       1.220       0.015       0.727341       0.577031       0.337212   
293701.00      30.5279557360     114.3557952312         30.471       0.018       1.177      -0.018       1.146675       0.570542       0.325283   
293702.00      30.5279665412     114.3557952417         30.472       0.008       1.189       0.036       0.770518       0.711742       0.298119   
293703.00      30.5279775016     114.3557952624         30.471      -0.022       1.202       0.002       0.467929       0.417621       0.327558   
293704.00      30.5279883566     114.3557951213         30.473      -0.032       1.215       0.002       0.412746       0.500145       0.108881   
293705.00      30.5279989935     114.3557948989         30.473      -0.021       1.174      -0.020       0.042988       0.281325       0.052921   
293706.00      30.5280095003     114.3557945592         30.474      -0.034       1.193       0.015     359.367100       0.495048       0.019564   
293707.00      30.5280203350     114.3557945529         30.476       0.042       1.179       0.001       1.630278       0.242774       0.269134   
293708.00      30.5280311504     114.3557946974         30.474      -0.008       1.190       0.012       1.443499       0.298901       0.263044   
293709.00      30.5280422663     114.3557949305         30.472       0.006       1.201      -0.008       1.763177       0.087166       0.471372   
293710.00      30.5280527608     114.3557950319         30.472      -0.013       1.172      -0.006       0.291659       0.590592       0.774314   
293711.00      30.5280624156     114.3557938897         30.476      -0.463       1.004      -0.005     347.712246       0.323224       0.618266   
293712.00      30.5280685731     114.3557885859         30.477      -0.857       0.423       0.001     314.897646       0.431399       0.475872   
293713.00      30.5280708128     114.3557802949         30.478      -1.072       0.049       0.016     283.662009       0.370966       0.079941   
293714.00      30.5280710469     114.3557694324         30.481      -1.115      -0.074      -0.014     270.044888       0.543500       0.068778   
293715.00      30.5280705796     114.3557573950         30.482      -1.167      -0.040       0.016     269.063147       0.322432       0.100664   
293716.00      30.5280703364     114.3557448972         30.486      -1.235      -0.042      -0.007     269.812376       0.607496      -0.021149   
293717.00      30.5280702229     114.3557325009         30.489      -1.153       0.023      -0.011     271.577223       0.460361      -0.062150   
293718.00      30.5280694664     114.3557214737         30.489      -1.041      -0.418       0.042     260.034975       0.304300       0.056862   
293719.00      30.5280649855     114.3557139047         30.488      -0.439      -0.945       0.018     225.177921       0.495574       0.020581   
293720.00      30.5280569836     114.3557109679         30.487      -0.029      -1.137       0.008     192.809277       0.318688      -0.157461   
293721.00      30.5280469666     114.3557109971         30.489       0.099      -1.198       0.010     178.317275       0.450821       0.118622   
293722.00      30.5280359259     114.3557117414         30.490       0.057      -1.200      -0.011     178.122302       0.414202       0.200117   
293723.00      30.5280253544     114.3557121827         30.489       0.070      -1.157      -0.015     179.194238       0.397085       0.163744   
293724.00      30.5280146876     114.3557126927         30.489       0.025      -1.221       0.001     179.188364       0.374123       0.284942   
293725.00      30.5280038315     114.3557125655         30.488      -0.016      -1.190      -0.018     182.328770       0.361441       0.343802   
293726.00      30.5279931604     114.3557122632         30.489      -0.004      -1.177       0.003     182.334025       0.289268       0.491380   
293727.00      30.5279831152     114.3557129915         30.486       0.276      -1.083      -0.027     173.020768       0.226707       0.499138   
293728.00      30.5279755413     114.3557171524         30.483       0.756      -0.650      -0.028     146.896954       0.344226       0.263149   
293729.00      30.5279723498     114.3557244664         30.481       0.952      -0.069       0.005     110.126765       0.134149       0.276406   
293730.00      30.5279718280     114.3557344883         30.477       1.116       0.085      -0.035      91.169237       0.296093       0.385929   
293731.00      30.5279722881     114.3557464072         30.478       1.150       0.058      -0.019      88.534988       0.372855       0.409000   
293732.00      30.5279726896     114.3557584779         30.477       1.147       0.018       0.015      89.218306       0.524025       0.381353   
293733.00      30.5279728217     114.3557706514         30.475       1.174       0.003       0.001      91.080061       0.244549       0.309636   
293734.00      30.5279730032     114.3557830811         30.472       1.217       0.023       0.021      89.952833       0.311168       0.138264   
293735.00      30.5279732500     114.3557955796         30.473       1.209       0.017       0.009      89.782276       0.474175       0.120388   
293736.00      30.5279732353     114.3558082007         30.474       1.203       0.016      -0.021      90.972620       0.204433       0.208899   
293737.00      30.5279734184     114.3558207048         30.474       1.190       0.029       0.009      90.110574       0.416860       0.152682   
293738.00      30.5279734886     114.3558330966         30.476       1.167      -0.008      -0.018      90.473257       0.438118       0.442814   
293739.00      30.5279735102     114.3558452700         30.477       1.097       0.017      -0.000      90.792270       0.446029       0.429532   
293740.00      30.5279736005     114.3558565884         30.476       1.069      -0.143      -0.010      93.158202       0.569744       0.174005   
293741.00      30.5279703174     114.3558674079         30.474       0.681      -0.755      -0.009     122.640263       0.154980      -0.132037   
293742.00      30.5279618722     114.3558736346         30.475       0.134      -1.051      -0.024     159.262991       0.393565       0.213581   
293743.00      30.5279512686     114.3558750494         30.472      -0.023      -1.186      -0.014     178.196158       0.209734       0.331278   
293744.00      30.5279400722     114.3558748183         30.470      -0.060      -1.281      -0.033     183.011244       0.356348       0.211730   
293745.00      30.5279287461     114.3558743881         30.467      -0.002      -1.217      -0.032     182.285740       0.091929       0.379269   
293746.00      30.5279178296     114.3558744374         30.462       0.004      -1.209       0.024     181.190945       0.430268      -0.083940   
293747.00      30.5279066659     114.3558743340         30.457       0.009      -1.191      -0.004     180.928995      -0.088062       0.159672   
293748.00      30.5278956520     114.3558745375         30.451       0.038      -1.245      -0.003     179.679780       0.144658       0.227744   
293749.00      30.5278845935     114.3558747054         30.444       0.016      -1.189       0.025     180.489816       0.171887       0.030522   
293750.00      30.5278737758     114.3558749582         30.438       0.041      -1.187      -0.019     179.396382       0.195070       0.130424   
293751.00      30.5278631850     114.3558748409         30.436      -0.020      -1.190      -0.007     182.029661       0.297906       0.368939   
293752.00      30.5278527580     114.3558746601         30.433       0.012      -1.128       0.036     181.558007       0.099985       0.471015   
293753.00      30.5278425077     114.3558734135         30.426      -0.377      -0.987       0.040     194.837225       0.043393       0.012601   
293754.00      30.5278340991     114.3558670600         30.421      -0.855      -0.562       0.005     224.518596      -0.081524       0.212988   
293755.00      30.5278296743     114.3558564210         30.411      -1.122      -0.134       0.002     254.845471       0.164074      -0.070708   
293756.00      30.5278287624     114.3558442237         30.409      -1.169       0.032      -0.034     270.281988       0.493967      -0.043206   
293757.00      30.5278288715     114.3558323197         30.408      -1.121       0.003      -0.013     272.510455       0.398783      -0.530988   
293758.00      30.5278291264     114.3558209549         30.409      -1.091       0.047      -0.009     272.337127       0.477480       0.119639   
293759.00      30.5278304371     114.3558096595         30.410      -0.927       0.376      -0.001     284.700804       0.382997       0.090364   
293760.00      30.5278356039     114.3558000680         30.409      -0.485       0.833       0.016     313.785459       0.535850      -0.035757   
293761.00      30.5278446872     114.3557955343         30.413      -0.048       1.055       0.018     346.918368       0.441729       0.134298   
293762.00      30.5278547321     114.3557948780         30.417      -0.004       1.111      -0.007     359.537981       0.628948       0.280667   
293763.00      30.5278655332     114.3557951081         30.421       0.044       1.189      -0.013       2.858449       0.633607       0.068013   
293764.00      30.5278763935     114.3557955642         30.428       0.039       1.216      -0.001       2.727538       0.644107       0.158027   
293765.00      30.5278873869     114.3557957997         30.432      -0.020       1.204      -0.007       1.546798       0.623077       0.081590   
293766.00      30.5278985814     114.3557958696         30.439       0.013       1.217       0.032       1.697338       0.701717       0.266547   
293767.00      30.5279093344     114.3557960110         30.445      -0.009       1.175      -0.015       1.544579       0.541953       0.284776   
293768.00      30.5279197676     114.3557957414         30.449      -0.058       1.154       0.018     359.606517       0.692446       0.061856   
293769.00      30.5279301549     114.3557953136         30.454      -0.020       1.132       0.011     359.436727       0.612035      -0.020128   
293770.00      30.5279405035     114.3557953700         30.459       0.011       1.124      -0.013       1.451031       0.637762       0.240880   
293771.00      30.5279510400     114.3557954036         30.464      -0.017       1.177       0.016       1.032901       0.704719       0.209497   
293772.00      30.5279617656     114.3557954495         30.467       0.023       1.166       0.012       1.338243       0.217110       0.297330   
293773.00      30.5279722069     114.3557952561         30.467      -0.013       1.182       0.027     359.970170       0.140586       0.226423   
293774.00      30.5279828417     114.3557951775         30.467      -0.017       1.200       0.010       0.853293       0.526830       0.147628   
293775.00      30.5279935216     114.3557950468         30.469       0.014       1.164       0.002       0.918449       0.413142       0.042936   
293776.00      30.5280043468     114.3557951198         30.468       0.038       1.193      -0.002       1.661460       0.526452      -0.098182   
293777.00      30.5280150276     114.3557953524         30.472      -0.010       1.212      -0.003       1.269329       0.391285       0.131078   
293778.00      30.5280257265     114.3557952964         30.471      -0.027       1.176      -0.001       0.355111       0.325561       0.179160   
293779.00      30.5280363167     114.3557950783         30.471      -0.010       1.178      -0.002     359.974092       0.183510       0.353779   
293780.00      30.5280469503     114.3557954634         30.469       0.037       1.113      -0.029       2.887904       0.287271       0.870120   
293781.00      30.5280571101     114.3557956419         30.471      -0.013       1.112       0.030       1.498071       0.535557       0.567668   
293782.00      30.5280655768     114.3557942929         30.473      -0.532       0.759       0.003     343.918728       0.423357       0.685485   
293783.00      30.5280693849     114.3557892405         30.474      -0.829       0.180      -0.023     305.185643       0.502669       0.421654   
293784.00      30.5280707509     114.3557809294         30.475      -1.016       0.085       0.002     280.417254       0.323456       0.219754   
293785.00      30.5280712031     114.3557699086         30.477      -1.154       0.001       0.006     272.556258       0.589876       0.089985   
293786.00      30.5280710996     114.3557579057         30.479      -1.159      -0.010      -0.002     270.444864       0.296068       0.158763   
293787.00      30.5280708591     114.3557460256         30.482      -1.167       0.012       0.034     270.574805       0.661007      -0.029643   
293788.00      30.5280709765     114.3557345163         30.484      -1.093      -0.002      -0.014     271.570630       0.549107       0.022222   
293789.00      30.5280708068     114.3557233793         30.487      -1.034      -0.136      -0.018     267.793038       0.238415       0.015239   
293790.00      30.5280686474     114.3557150865         30.486      -0.542      -0.660      -0.013     242.986999       0.266859       0.124556   
293791.00      30.5280643495     114.3557125323         30.486       0.081      -0.655      -0.009     202.088119       0.502024      -0.034254   
293792.00      30.5280615162     114.3557128208         30.487       0.014      -0.051       0.001     181.012420       0.289991      -0.093034   
293793.00      30.5280614058     114.3557128831         30.488       0.005      -0.001       0.000     180.837183       0.311242      -0.164981   
293794.00      30.5280614873     114.3557128689         30.489      -0.007       0.022       0.001     181.309676       0.266810      -0.142673   
293795.00      30.5280615134     114.3557128693         30.490      -0.001       0.002       0.001     181.451312       0.264463      -0.136337   
293796.00      30.5280615101     114.3557128729         30.491       0.000      -0.001       0.001     181.462996       0.265223      -0.136849   
293797.00      30.5280615064     114.3557128768         30.492       0.000      -0.000       0.001     181.462306       0.265204      -0.137465   
293798.00      30.5280615040     114.3557128799         30.492       0.000      -0.000       0.001     181.462369       0.265107      -0.138005   
293799.00      30.5280615025     114.3557128814         30.493       0.000      -0.000       0.001     181.462342       0.265246      -0.138324   
293800.00      30.5280615025     114.3557128812         30.493       0.000       0.000       0.000     181.462517       0.265181      -0.138625   
293801.00      30.5280615063     114.3557128820         30.494       0.000       0.000      -0.000     181.462701       0.265062      -0.139019   
293802.00      30.5280615095     114.3557128826         30.494      -0.000       0.000      -0.000     181.462636       0.265071      -0.139232   
293803.00      30.5280615127     114.3557128797         30.494      -0.000       0.000       0.000     181.462697       0.265158      -0.139387   
293804.00      30.5280615154     114.3557128780         30.494      -0.000       0.000       0.000     181.462548       0.265234      -0.139609   
293805.00      30.5280615158     114.3557128764         30.494      -0.000      -0.000       0.000     181.462642       0.265211      -0.139706   
293806.00      30.5280615166     114.3557128769         30.494       0.000       0.000       0.000     181.462662       0.265253      -0.139805   
293807.00      30.5280615183     114.3557128773         30.495       0.000       0.000       0.000     181.462843       0.265211      -0.139952   
293808.00      30.5280615196     114.3557128793         30.495       0.000      -0.000       0.000     181.462775       0.265255      -0.140056   
293809.00      30.5280615183     114.3557128808         30.495       0.000      -0.000       0.000     181.462666       0.265118      -0.140138   
293810.00      30.5280615169     114.3557128795         30.496      -0.000      -0.000       0.000     181.462770       0.265007      -0.140274   
293811.00      30.5280615156     114.3557128752         30.496      -0.000      -0.000       0.000     181.462764       0.264994      -0.140410   
293812.00      30.5280615128     114.3557128724         30.496      -0.000      -0.000       0.000     181.462757       0.265067      -0.140551   
293813.00      30.5280615096     114.3557128708         30.496      -0.000      -0.000       0.000     181.462775       0.265069      -0.140647   
293814.00      30.5280615094     114.3557128707         30.496       0.000      -0.000       0.000     181.462719       0.265042      -0.140826   
293815.00      30.5280615077     114.3557128713         30.496       0.000      -0.000      -0.000     181.462648       0.264986      -0.140980   
293816.00      30.5280615054     114.3557128715         30.496      -0.000      -0.000      -0.000     181.462521       0.265001      -0.140960   
293817.00      30.5280615032     114.3557128718         30.495      -0.000      -0.000      -0.000     181.462481       0.265042      -0.141033   
293818.00      30.5280615038     114.3557128721         30.495      -0.000       0.000      -0.000     181.462546       0.265074      -0.141151   
293819.00      30.5280615070     114.3557128731         30.495       0.000       0.000       0.000     181.462530       0.264959      -0.141176   
293820.00      30.5280615128     114.3557128742         30.495       0.000       0.001       0.000     181.462534       0.264888      -0.141322   
293821.00      30.5280615170     114.3557128746         30.495       0.000       0.000       0.000     181.462432       0.264919      -0.141413   
293822.00      30.5280615181     114.3557128766         30.495       0.000       0.000      -0.000     181.462443       0.264799      -0.141434   
293823.00      30.5280615184     114.3557128770         30.495      -0.000      -0.000       0.000     181.462522       0.264784      -0.141479   
293824.00      30.5280615170     114.3557128755         30.496      -0.000      -0.000       0.000     181.462493       0.264747      -0.141545   
293825.00      30.5280615156     114.3557128737         30.496      -0.000      -0.000       0.000     181.462557       0.264777      -0.141565   
293826.00      30.5280615137     114.3557128707         30.496      -0.000      -0.000       0.000     181.462602       0.264780      -0.141702   
293827.00      30.5280615127     114.3557128695         30.496       0.000      -0.000       0.000     181.462658       0.264727      -0.141777   
293828.00      30.5280615118     114.3557128705         30.497       0.000       0.000       0.000     181.462606       0.264625      -0.141789   
293829.00      30.5280615109     114.3557128704         30.497      -0.000      -0.000       0.000     181.462616       0.264639      -0.141643   
293830.00      30.5280615088     114.3557128685         30.496      -0.000      -0.000      -0.001     181.462494       0.264555      -0.141681   
293831.00      30.5280615071     114.3557128672         30.496      -0.000      -0.000      -0.001     181.462386       0.264543      -0.141770   
293832.00      30.5280615069     114.3557128656         30.495      -0.000       0.000      -0.001     181.462391       0.264474      -0.141790   
293833.00      30.5280615089     114.3557128630         30.494      -0.000       0.000      -0.001     181.464028       0.264788      -0.141912   
293834.00      30.5280615133     114.3557128622         30.494      -0.000       0.001      -0.000     181.461045       0.264926      -0.141695   
293835.00      30.5280615165     114.3557128636         30.494       0.000       0.000      -0.000     181.462943       0.264292      -0.142526   
293836.00      30.5280615182     114.3557128647         30.493       0.000       0.000      -0.000     181.462453       0.264499      -0.141903   
293837.00      30.5280615199     114.3557128677         30.493       0.000       0.000      -0.000     181.462877       0.264407      -0.141979   
293838.00      30.5280615195     114.3557128686         30.493      -0.000      -0.000       0.000     181.462976       0.264321      -0.142106   
293839.00      30.5280615194     114.3557128692         30.493       0.000       0.000      -0.000     181.463049       0.264384      -0.142084   
293840.00      30.5280615184     114.3557128700         30.493      -0.000      -0.000       0.000     181.462913       0.264447      -0.142189   
293841.00      30.5280615175     114.3557128708         30.493       0.000      -0.000      -0.000     181.462871       0.264504      -0.142229   
293842.00      30.5280615173     114.3557128724         30.493       0.000      -0.000       0.000     181.462668       0.264457      -0.142234   
293843.00      30.5280615160     114.3557128744         30.493      -0.000      -0.000       0.000     181.462617       0.264392      -0.142162   
293844.00      30.5280615142     114.3557128754         30.493       0.000      -0.000       0.000     181.462639       0.264425      -0.142279   
293845.00      30.5280615122     114.3557128760         30.493       0.000      -0.000      -0.000     181.462734       0.264476      -0.142325   
293846.00      30.5280615104     114.3557128778         30.493       0.000      -0.000       0.000     181.462657       0.264527      -0.142475   
293847.00      30.5280615100     114.3557128789         30.493       0.000       0.000      -0.000     181.462692       0.264577      -0.142364   
293848.00      30.5280615098     114.3557128806         30.493       0.000       0.000       0.000     181.462696       0.264558      -0.142401   
293849.00      30.5280615113     114.3557128829         30.493       0.000       0.000       0.000     181.462661       0.264544      -0.142455   
293850.00      30.5280615129     114.3557128830         30.493      -0.000       0.000       0.000     181.462612       0.264457      -0.142532   
293851.00      30.5280615141     114.3557128792         30.494      -0.000       0.000       0.000     181.462528       0.264431      -0.142558   
293852.00      30.5280615147     114.3557128768         30.494      -0.000       0.000       0.000     181.462551       0.264558      -0.142615   
293853.00      30.5280615142     114.3557128768         30.494       0.000       0.000       0.000     181.462598       0.264546      -0.142599   
293854.00      30.5280615151     114.3557128780         30.494       0.000       0.000      -0.000     181.462748       0.264679      -0.142532   
293855.00      30.5280615158     114.3557128793         30.494       0.000       0.000      -0.000     181.462741       0.264684      -0.142547   
293856.00      30.5280615167     114.3557128821         30.494       0.000      -0.000      -0.000     181.462773       0.264680      -0.142548   
293857.00      30.5280615166     114.3557128845         30.494       0.000      -0.000      -0.000     181.462695       0.264596      -0.142560   
293858.00      30.5280615152     114.3557128860         30.493       0.000      -0.000      -0.000     181.462706       0.264519      -0.142644   
293859.00      30.5280615135     114.3557128881         30.493       0.000      -0.000      -0.000     181.462664       0.264494      -0.142577   
293860.00      30.5280615116     114.3557128878         30.492      -0.000      -0.000      -0.001     181.462757       0.264514      -0.142624   
293861.00      30.5280615091     114.3557128871         30.492      -0.000      -0.000      -0.001     181.462736       0.264481      -0.142555   
293862.00      30.5280615098     114.3557128858         30.491      -0.000       0.000      -0.001     181.462710       0.264465      -0.142611   
293863.00      30.5280615100     114.3557128848         30.491      -0.000       0.000      -0.000     181.462555       0.264423      -0.142593   
293864.00      30.5280615104     114.3557128837         30.491       0.000       0.000      -0.000     181.462486       0.264527      -0.142671   
293865.00      30.5280615111     114.3557128833         30.490       0.000       0.000      -0.000     181.462412       0.264563      -0.142537   
293866.00      30.5280615114     114.3557128832         30.490       0.000       0.000      -0.000     181.462400       0.264740      -0.142590   
293867.00      30.5280615096     114.3557128846         30.490       0.000      -0.000      -0.000     181.462522       0.264696      -0.142567   
293868.00      30.5280615070     114.3557128862         30.489       0.000      -0.000      -0.001     181.462590       0.264777      -0.142610   
293869.00      30.5280615057     114.3557128855         30.489      -0.000      -0.000      -0.001     181.462554       0.264823      -0.142552   
293870.00      30.5280615053     114.3557128837         30.488      -0.000      -0.000      -0.000     181.462693       0.264795      -0.142532   
293871.00      30.5280615048     114.3557128821         30.488      -0.000      -0.000      -0.000     181.462783       0.264722      -0.142500   
293872.00      30.5280615028     114.3557128815         30.488      -0.000      -0.000       0.000     181.462529       0.264724      -0.142403   
293873.00      30.5280615014     114.3557128810         30.488       0.000      -0.000      -0.000     181.462492       0.264751      -0.142429   
293874.00      30.5280615001     114.3557128824         30.488       0.000      -0.000      -0.000     181.462384       0.264865      -0.142377   
293875.00      30.5280614986     114.3557128846         30.488       0.000      -0.000       0.000     181.462262       0.264970      -0.142325   
293876.00      30.5280614972     114.3557128855         30.488       0.000      -0.000       0.000     181.462334       0.264939      -0.142383   
293877.00      30.5280614971     114.3557128872         30.488       0.000       0.000       0.000     181.462402       0.264934      -0.142365   
293878.00      30.5280614973     114.3557128891         30.488      -0.000      -0.000       0.000     181.462294       0.264956      -0.142280   
293879.00      30.5280614964     114.3557128895         30.489       0.000      -0.000       0.000     181.462353       0.265103      -0.142210   
293880.00      30.5280614963     114.3557128903         30.489       0.000       0.000       0.000     181.462292       0.265078      -0.142304   
293881.00      30.5280614984     114.3557128904         30.489       0.000       0.000       0.000     181.462361       0.265091      -0.142366   
293882.00      30.5280615004     114.3557128904         30.490      -0.000       0.000       0.001     181.462350       0.264968      -0.142469   
293883.00      30.5280615036     114.3557128911         30.490       0.000       0.000       0.000     181.462453       0.264950      -0.142440   
293884.00      30.5280615050     114.3557128918         30.490       0.000       0.000       0.000     181.462523       0.264930      -0.142413   
293885.00      30.5280615038     114.3557128911         30.491      -0.000      -0.000       0.000     181.462491       0.265015      -0.142450   
293886.00      30.5280615011     114.3557128911         30.491      -0.000      -0.000       0.000     181.462719       0.265070      -0.142457   
293887.00      30.5280615002     114.3557128904         30.491      -0.000      -0.000      -0.000     181.462717       0.265034      -0.142532   
293888.00      30.5280614989     114.3557128897         30.491      -0.000      -0.000      -0.000     181.462781       0.265015      -0.142599   
293889.00      30.5280614975     114.3557128890         30.491      -0.000      -0.000       0.000     181.463079       0.265113      -0.142663   
293890.00      30.5280614977     114.3557128888         30.491       0.000       0.000       0.000     181.463278       0.265101      -0.142625   
293891.00      30.5280614987     114.3557128882         30.491      -0.000       0.000       0.000     181.463243       0.265126      -0.142766   
293892.00      30.5280614982     114.3557128869         30.491      -0.000      -0.000       0.000     181.463285       0.265105      -0.142749   
293893.00      30.5280614959     114.3557128857         30.492      -0.000      -0.000       0.000     181.463344       0.265076      -0.142751   
293894.00      30.5280614952     114.3557128854         30.492       0.000       0.000      -0.000     181.463576       0.265152      -0.142614   
293895.00      30.5280614969     114.3557128864         30.491       0.000       0.000      -0.000     181.463761       0.265189      -0.142633   
293896.00      30.5280614985     114.3557128863         30.491      -0.000       0.000      -0.000     181.464167       0.265206      -0.142506   
293897.00      30.5280614998     114.3557128852         30.491      -0.000       0.000      -0.000     181.464128       0.265297      -0.142508   
293898.00      30.5280615009     114.3557128848         30.491       0.000       0.000      -0.000     181.464101       0.265248      -0.142637   
293899.00      30.5280615002     114.3557128845         30.491       0.000      -0.000      -0.000     181.463994       0.265259      -0.142696   
293900.00      30.5280614977     114.3557128858         30.490       0.000      -0.000      -0.000     181.464147       0.265400      -0.142747   
293901.00      30.5280614967     114.3557128884         30.490       0.000      -0.000      -0.000     181.464442       0.265356      -0.142637   
293902.00      30.5280614954     114.3557128887         30.490       0.000      -0.000      -0.000     181.464198       0.265491      -0.142605   
293903.00      30.5280614952     114.3557128900         30.490      -0.000       0.000       0.000     181.464449       0.265426      -0.142628   
293904.00      30.5280614954     114.3557128891         30.490       0.000       0.000      -0.000     181.464612       0.265443      -0.142565   
293905.00      30.5280614943     114.3557128889         30.490      -0.000      -0.000       0.000     181.464473       0.265431      -0.142431   
293906.00      30.5280614929     114.3557128883         30.490       0.000      -0.000       0.000     181.464370       0.265404      -0.142348   
293907.00      30.5280614926     114.3557128897         30.490       0.000      -0.000       0.000     181.464214       0.265579      -0.142339   
293908.00      30.5280614931     114.3557128892         30.490       0.000      -0.000      -0.000     181.464590       0.265576      -0.142365   
293909.00      30.5280614929     114.3557128897         30.490       0.000       0.000      -0.000     181.463908       0.265620      -0.142289   
293910.00      30.5280614940     114.3557128923         30.490       0.000       0.000       0.000     181.464023       0.265731      -0.142324   
293911.00      30.5280614934     114.3557128946         30.490       0.000      -0.000      -0.000     181.465203       0.265763      -0.142132   
293912.00      30.5280614915     114.3557128963         30.490       0.000      -0.000       0.000     181.465475       0.265840      -0.142247   
293913.00      30.5280614896     114.3557128974         30.490       0.000       0.000       0.000     181.465040       0.265844      -0.142317   
293914.00      30.5280614891     114.3557129004         30.491       0.000       0.000       0.000     181.464630       0.266066      -0.142323   
293915.00      30.5280614888     114.3557129046         30.491       0.000      -0.000       0.000     181.465128       0.266025      -0.142348   
293916.00      30.5280614905     114.3557129090         30.491       0.000       0.000       0.000     181.464855       0.266090      -0.142550   
293917.00      30.5280614924     114.3557129111         30.491       0.000       0.000       0.000     181.464617       0.266244      -0.142705   
293918.00      30.5280614921     114.3557129102         30.491      -0.000      -0.000       0.000     181.464890       0.266259      -0.142640   
293919.00      30.5280614895     114.3557129084         30.491      -0.000      -0.000       0.000     181.465037       0.266307      -0.142641   
293920.00      30.5280614859     114.3557129061         30.492      -0.000      -0.000       0.000     181.465075       0.266368      -0.142921   
293921.00      30.5280614851     114.3557129014         30.492      -0.000       0.000       0.000     181.464924       0.266585      -0.143142   
293922.00      30.5280614857     114.3557128975         30.492      -0.000       0.000       0.000     181.465212       0.266474      -0.143258   
293923.00      30.5280614873     114.3557128937         30.492      -0.000       0.000       0.000     181.465293       0.266667      -0.143222   
293924.00      30.5280614891     114.3557128929         30.493      -0.000       0.000       0.000     181.465363       0.266577      -0.143477   
293925.00      30.5280614894     114.3557128928         30.493       0.000       0.000       0.000     181.465123       0.266537      -0.143499   
293926.00      30.5280614894     114.3557128910         30.492      -0.000       0.000      -0.000     181.464964       0.266476      -0.143673   
293927.00      30.5280614897     114.3557128871         30.492      -0.000      -0.000      -0.000     181.464778       0.266509      -0.143454   
293928.00      30.5280614903     114.3557128830         30.492      -0.000       0.000      -0.000     181.464891       0.266464      -0.143500   
293929.00      30.5280614907     114.3557128799         30.491      -0.000      -0.000      -0.000     181.464860       0.266541      -0.143447   
293930.00      30.5280614919     114.3557128822         30.491       0.000       0.000      -0.000     181.464798       0.266688      -0.143273   
293931.00      30.5280614937     114.3557128820         30.491      -0.000       0.000      -0.000     181.465151       0.266733      -0.143496   
293932.00      30.5280614957     114.3557128821         30.490      -0.000       0.000      -0.000     181.465211       0.266862      -0.143402   
293933.00      30.5280614975     114.3557128829         30.490       0.000       0.000      -0.000     181.465615       0.267115      -0.143241   
293934.00      30.5280614999     114.3557128820         30.490      -0.000       0.000       0.000     181.465931       0.267068      -0.143020   
293935.00      30.5280615020     114.3557128813         30.490      -0.000       0.000       0.000     181.465968       0.267145      -0.143200   
293936.00      30.5280615035     114.3557128814         30.491       0.000       0.000       0.000     181.465885       0.267047      -0.143238   
293937.00      30.5280615046     114.3557128819         30.491      -0.000      -0.000       0.000     181.466023       0.267102      -0.143029   
293938.00      30.5280615045     114.3557128819         30.492       0.000      -0.000       0.001     181.466334       0.267150      -0.142946   
293939.00      30.5280615041     114.3557128844         30.492       0.001      -0.000       0.000     181.466368       0.267068      -0.142796   
293940.00      30.5280615047     114.3557128876         30.492       0.000       0.000       0.000     181.466058       0.267188      -0.143049   
293941.00      30.5280615040     114.3557128884         30.492       0.000      -0.000       0.000     181.465897       0.267166      -0.143132   
293942.00      30.5280615018     114.3557128899         30.492       0.000      -0.000       0.000     181.466392       0.267127      -0.143048   
293943.00      30.5280614995     114.3557128902         30.493       0.000      -0.000       0.000     181.466695       0.267117      -0.143281   
293944.00      30.5280614976     114.3557128915         30.493       0.000      -0.000       0.000     181.465897       0.267176      -0.143352   
293945.00      30.5280614969     114.3557128931         30.493       0.000      -0.000       0.000     181.465725       0.267193      -0.143557   
293946.00      30.5280614966     114.3557128931         30.493      -0.000       0.000      -0.000     181.465507       0.267160      -0.143647   
293947.00      30.5280614975     114.3557128940         30.493       0.000       0.000      -0.000     181.465045       0.267167      -0.143711   
293948.00      30.5280614998     114.3557128966         30.492       0.000       0.000      -0.000     181.464465       0.267103      -0.143893   
293949.00      30.5280615018     114.3557128976         30.493       0.000      -0.000       0.000     181.464056       0.267022      -0.144147   
293950.00      30.5280615008     114.3557128992         30.493       0.000      -0.000      -0.000     181.463813       0.267065      -0.144282   
293951.00      30.5280615002     114.3557128993         30.492       0.000      -0.000      -0.000     181.463742       0.267144      -0.144430   
293952.00      30.5280615013     114.3557128992         30.492       0.000       0.000      -0.000     181.463598       0.267143      -0.144642   
293953.00      30.5280615021     114.3557128992         30.492       0.000       0.000       0.000     181.463559       0.267128      -0.144756   
293954.00      30.5280615029     114.3557128989         30.492      -0.000       0.000       0.000     181.463492       0.267060      -0.144868   
293955.00      30.5280615030     114.3557128993         30.493       0.000       0.000       0.001     181.463495       0.267012      -0.145065   
293956.00      30.5280615015     114.3557129036         30.493       0.000      -0.000       0.001     181.463386       0.267135      -0.145020   
293957.00      30.5280615022     114.3557129052         30.494       0.000       0.000       0.000     181.463453       0.267173      -0.145090   
293958.00      30.5280615048     114.3557129055         30.494      -0.000       0.000       0.001     181.463445       0.267236      -0.145206   
293959.00      30.5280615089     114.3557129050         30.495      -0.000       0.001       0.001     181.463586       0.267313      -0.145149   
293960.00      30.5280615129     114.3557129032         30.495      -0.000       0.000       0.001     181.463469       0.267382      -0.145198   
293961.00      30.5280615160     114.3557129025         30.496      -0.000      -0.000       0.000     181.463351       0.267343      -0.145216   
293962.00      30.5280615191     114.3557129014         30.496       0.000       0.000       0.000     181.463335       0.267368      -0.145190   
293963.00      30.5280615216     114.3557129029         30.496       0.000       0.000       0.000     181.463540       0.267410      -0.145230   
293964.00      30.5280615232     114.3557129022         30.496      -0.000       0.000      -0.000     181.463647       0.267444      -0.145168   
293965.00      30.5280615225     114.3557129014         30.496       0.000      -0.000      -0.000     181.463775       0.267384      -0.145125   
293966.00      30.5280615210     114.3557129033         30.496       0.000      -0.000      -0.000     181.463920       0.267638      -0.145106   
293967.00      30.5280615186     114.3557129056         30.496       0.000      -0.000      -0.000     181.464159       0.267540      -0.145054   
293968.00      30.5280615142     114.3557129044         30.495      -0.000      -0.001      -0.000     181.463774       0.267635      -0.145276   
293969.00      30.5280615092     114.3557129029         30.495       0.000      -0.001      -0.000     181.463419       0.267596      -0.145427   
293970.00      30.5280615044     114.3557129056         30.495       0.000      -0.000      -0.000     181.463143       0.267676      -0.145413   
293971.00      30.5280615007     114.3557129073         30.495       0.000      -0.000       0.000     181.463212       0.267661      -0.145369   
293972.00      30.5280614979     114.3557129075         30.495      -0.000      -0.000      -0.000     181.463275       0.267645      -0.145401   
293973.00      30.5280614976     114.3557129070         30.495      -0.000       0.000       0.000     181.463981       0.267798      -0.145410   
293974.00      30.5280614983     114.3557129063         30.495       0.000       0.000       0.000     181.462921       0.267788      -0.145724   
293975.00      30.5280615004     114.3557129062         30.495      -0.000       0.000      -0.000     181.463245       0.267887      -0.145724   
293976.00      30.5280615023     114.3557129064         30.495       0.000       0.000       0.000     181.463171       0.267912      -0.145455   
